stop_id,stop_name,stop_lat,stop_lon
10017,Bucureşti Nord Gr.A,44.446652,26.073465
10287,Videle,44.284168,25.537262
10445,Roşiori Nord,44.123808,24.979367
10574,Caracal,44.119414,24.364977
10770,Craiova,44.327085,23.822089
10902,Filiaşi,44.552384,23.51084
11085,Balota,44.617524,22.803798
11126,Drobeta Tr.Sev Est Hm.,44.622787,22.679105
11140,Drobeta Tr. Severin,44.622078,22.643628
11231,Orşova,44.730936,22.416848
11308,Băile Herculane,44.862628,22.3878
11554,Caransebeş,45.424444,22.221366
11580,Tibiscu h.,45.456312,22.183682
11592,Zăgujeni Hm.,45.480654,22.167721
11619,Căvăran,45.548241,22.139136
11621,Sacu h.,45.573559,22.111106
11645,Jena Hm.,45.5905,22.081382
11657,Găvojdia,45.622233,22.024664
11671,Tapia Hm.,45.650299,21.967205
11695,Lugoj,45.679667,21.897402
11724,Jabăr Hm.,45.726631,21.826653
11748,Belinţ Hm.,45.744394,21.762648
11750,Chizătău Hm.,45.750196,21.711526
11774,Topolovăţ,45.768445,21.629222
11786,Şuştra h.,45.776405,21.582112
11803,Recaş,45.793682,21.489655
11815,Izvin h.,45.794254,21.462718
11839,Remetea Mare,45.786347,21.363696
11841,Ghiroda h.,45.778553,21.307261
11877,Timişoara Est,45.769244,21.249965
11906,Timişoara Nord,45.75023,21.203318
11956,Săcălaz h.,45.767727,21.105164
11970,Beregsău hcv.,45.77423,21.009985
11994,Cărpiniş,45.783666,20.907872
12003,Checea Sat P.O.,45.788784,20.849397
12015,Clarii Vii h.,45.793099,20.799139
12039,Jimbolia,45.800275,20.718025
12431,Titu,44.661992,25.570119
15835,Gataia Hm.,45.422623,21.428327
15914,Timişoara Sud,45.715357,21.203387
15938,Timişoara C.E.T.,45.698556,21.200184
15940,Timişeni Hm.,45.652392,21.1804
15964,Pădureni Timiş P.M.,45.593179,21.193093
15988,Jebel Hm.,45.556599,21.197882
16009,Voiteni,45.475474,21.223247
16023,Birda hcv.,45.442431,21.328859
16047,Măureni h.,45.422482,21.511256
16061,Gherteniş h.,45.421008,21.587818
16073,Berzovia Hm.,45.4179,21.633303
16114,Bocşa Română hc.,45.376757,21.70992
16126,Vasiova,45.380528,21.759974
16140,Bocşa Montană h.,45.381603,21.780673
16152,Colţan h.,45.367699,21.801928
16164,Moniom h.,45.352827,21.830238
16176,Câlnic h.,45.334385,21.858297
16205,Reşiţa Nord,45.322583,21.872035
17053,Timişoara Vest Hm.,45.724434,21.16897
17091,Utvin h.,45.705145,21.127147
17106,Sânmihai h.,45.690158,21.105944
17120,Parţa h.,45.645141,21.130221
17144,Peciu Nou h.,45.597962,21.05233
17168,Cebza h.,45.565738,21.001738
17170,Giulvăz h.,45.54878,20.995307
17194,Rudna h.,45.503435,21.003688
17211,Cruceni hcv.,45.470993,20.872111
20012,Bartolomeu,45.662858,25.574548
20658,Sibiu,45.799765,24.162294
20713,Sibiu h.(203),45.811154,24.148314
21834,Arad,46.191443,21.324782
22010,Cristian Hm.,45.617664,25.479625
22034,Râşnov Hm.,45.594751,25.457777
22046,Râşnov h.,45.588944,25.437721
22060,Tohanu Vechi h.,45.57569,25.376671
22072,G-ral T.Moşoiu h.,45.568811,25.349627
22096,Zărneşti,45.562638,25.328283
22929,Coşlariu,46.172695,23.676714
22993,Bărăbanţ Nord h.,46.110188,23.577206
23002,Bărăbanţ Hm.,46.090682,23.598778
23014,Antestaţie Bărăbanţ h.,46.101656,23.607173
23038,Alba Iulia,46.056159,23.576137
25103,Viile Giarmata h.,45.800588,21.292877
25115,Giarmata Hm.,45.83353,21.307431
25127,Cerneteaz h.,45.838319,21.2852
25141,Pişchia h.,45.894765,21.343677
25153,Bencei h.,45.926828,21.383205
25165,Fibiş h.,45.954318,21.419508
25177,Remetea Mică,45.97117,21.468238
25256,Ronaţ Triaj h..,45.785108,21.17029
25282,Ronaţ Triaj Gr. D,45.794706,21.167053
25309,Sânandrei Hm.,45.848895,21.149368
25323,Baile Calacea,45.912374,21.171198
25347,Orţişoara,45.963561,21.190729
25361,Vinga Hm.,46.016625,21.199387
25385,Şag Hm.,46.058754,21.270361
25402,Valea Viilor Hm.,46.098669,21.311431
25426,Aradu Nou,46.144146,21.335183
25440,Arad Vest,46.19945,21.280305
25452,Ferma Ciala h.,46.195803,21.237893
25476,Sântoma h.,46.184763,21.182125
25488,Pecica,46.174523,21.086154
25529,Semlac h.,46.116106,20.92599
25543,Şeitin h.,46.117814,20.841901
25567,Nădlac,46.15952,20.767121
25646,Zădăreni Hm.,46.129429,21.221627
25658,Bodrogu Nou h.,46.125509,21.19654
25672,Felnac h.,46.110577,21.135243
25696,Sânpetru German h.,46.101289,21.050058
25701,Munor h.,46.099594,21.016511
25713,Secusigiu h.,46.08413,20.989659
25725,Aranca h.,46.074735,20.969107
25751,Periam,46.036388,20.872699
25787,Sânpetru h.,46.037786,20.814846
25804,Saravale h.,46.051832,20.739749
25828,Dudeştii Vechi  h.,46.03071,20.475349
25830,Vălcani hcv.,45.991847,20.405034
26042,Dudeştii Noi Hm.,45.825415,21.110793
26066,Pescăreţu Mic h.,45.827216,21.051068
26080,Biled Hm.,45.88336,20.94932
26107,Şandra h.,45.919245,20.896888
26121,Satu Nou Hm.,45.962929,20.817116
26145,Lovrin,45.965441,20.755514
26171,Tomnaticu h.,45.99204,20.671949
26195,Sânnicolau Mare Hm.,46.054234,20.64158
26212,Sânnicolau Nord h.,46.081861,20.623368
26236,Cenad h.,46.134992,20.595336
27034,Şard Ighiu h.,46.122379,23.521603
27046,Tăutu Ampoiului h.,46.096692,23.468086
27058,Văleni Meteş h.,46.092061,23.420703
27060,Poiana Ampoiului h.,46.0889,23.393411
27072,Prisaca h.,46.09953,23.330059
27084,Feneş h.,46.092818,23.300898
27096,Zlatna Tehnică,46.089348,23.262225
27101,Zlatna hcv.,46.108413,23.22955
27113,Zlatna h.,46.104691,23.239153
27137,Ampoiţa h.,46.111389,23.491851
30110,Chitila,44.502041,25.984516
30146,Buftea,44.564175,25.957236
30158,Dârza h.,44.599892,25.957138
30172,Periş,44.678193,25.996638
30196,Crivina,44.760166,26.025904
30304,Ploieşti Vest,44.924547,25.994612
30392,Floreşti Prahova,45.030178,25.809831
30421,Câmpina,45.132612,25.711404
30483,Comarnic,45.242355,25.63274
30524,Sinaia,45.352481,25.55278
30548,Buşteni,45.415858,25.537607
30550,Azuga,45.445017,25.552589
30615,Predeal,45.505624,25.575646
30691,Braşov,45.661677,25.613558
30756,Braşov Triaj,45.674246,25.64694
31334,Mediaş,46.160462,24.351314
31372,Târnava h.,46.133861,24.299242
31401,Copşa Mică,46.114624,24.229754
31451,Valea Lungă Hm.,46.118396,24.036306
31530,Blaj,46.176291,23.909433
31566,Crăciunel Hm.,46.172716,23.844036
31645,Teiuş,46.203605,23.691358
31695,Aiud Hm.,46.31254,23.73535
31748,Unirea Hm.,46.391106,23.804838
31750,Unirea hc.,46.399674,23.839146
31774,Războieni,46.414713,23.885692
31786,Grindeni h.,46.436567,23.89652
31798,Călăraşi Turda Hm.,46.487043,23.885655
31827,Câmpia Turzii,46.547004,23.879582
31865,Ploscoş h.,46.636732,23.851051
31877,Valea Florilor Hm.,46.664839,23.860772
31891,Boju Hm.,46.702003,23.836687
31918,Tunel Hm.,46.732257,23.813951
31920,Cojocna Hm.,46.766822,23.79015
31944,Apahida,46.791719,23.743049
31968,Dezmir h.,46.780587,23.69887
31982,Cluj Napoca Est,46.778838,23.670483
32015,Cluj Napoca,46.784618,23.586925
32053,Baciu Triaj Hm.,46.787068,23.527602
32065,Baciu h.,46.795223,23.515832
32091,Rădaia h.,46.804696,23.454062
32106,Suceag h.,46.800061,23.478304
32118,Mera Hm.,46.806915,23.445782
32120,Nădăşel h.,46.815795,23.425776
32144,Gârbău h.,46.830644,23.359502
32156,Macău h.,46.847215,23.314371
32168,Dorolţu h.,46.860411,23.301184
32182,Aghireş,46.866036,23.278835
32209,Aghireş h.,46.873446,23.247463
32223,Stana Hm.,46.872954,23.146982
32235,Jebuc h.,46.864493,23.093809
32261,Huedin,46.866961,23.032371
32285,Brăişoru Hm.,46.880395,22.920568
32297,Bologa h.,46.893196,22.880354
32302,Poieni,46.91474,22.861362
32314,Valea Drăganului h.,46.934748,22.844676
32326,Ciucea Hm.,46.954605,22.811515
32338,Negreni h.,46.951797,22.781422
32340,Lacu Crişului h.,46.959554,22.73599
32352,Piatra Craiului Hm.,46.946672,22.702509
32364,Bulz Hm.,46.934238,22.662783
32376,Stâna de Vale h.,46.928087,22.648376
32388,Bratca,46.928839,22.60318
32390,Bălnaca h.,46.934206,22.579216
32405,Şuncuiuş Hm.,46.949056,22.537628
32431,Vadu Crişului Hm.,46.994728,22.495839
32455,Vadu Crişului h.,46.977965,22.50845
32479,Butan h.,47.019284,22.44317
32481,Aleşd h.,47.037349,22.390266
32508,Aleşd,47.04,22.356859
32522,Ţeţchea h.,47.042814,22.318121
32534,Telechiu Hm.,47.046765,22.26746
32558,Tileagd,47.053695,22.210289
32572,Săbolciu h.,47.054899,22.140328
32584,Săcădat h.,47.05088,22.110809
32601,Oşorhei Hm.,47.039567,22.034163
32637,Oradea Est,47.043631,21.963065
32663,Oradea,47.07012,21.936531
32704,Oradea Vest Hm.,47.057405,21.891385
32742,Episcopia Bihor,47.099659,21.877082
33710,Ocna Sibiului Hm.,45.857086,24.067551
33746,Băile Ocna Sibiului h.,45.875385,24.070535
33758,Mândra h.,45.924127,24.075887
33760,Loamneş Hm.,45.938931,24.087853
33772,Haşag h.,45.971386,24.10739
33796,Şeica Mare h.,46.022289,24.157624
33801,Şeica Mare,46.034037,24.163027
33825,Agârbiciu h.,46.068706,24.189874
33837,Axente Sever h.,46.095464,24.21371
33875,Sâncel h.,46.200144,23.935801
33887,Pănade h.,46.218235,23.966579
33899,Şona h.,46.222238,24.010222
33904,Sfântu Nicolae h.,46.232541,24.046191
33928,Jidvei  hcv.,46.230153,24.108343
33930,Cetatea de Baltă h.,46.245323,24.164259
33942,Corneşti Târnava h.,46.300725,24.212054
33954,Adămuş h.,46.314484,24.237388
33966,Crăieşti h.,46.291303,24.202868
33978,Târnăveni Vest h.,46.324221,24.269102
34001,Târnăveni,46.328438,24.298922
34037,Găneşti h.,46.343962,24.365601
34049,Deaj h.,46.352157,24.39511
34051,Mica h.,46.360161,24.420288
34063,Bernadea h.,46.373926,24.449121
34075,Bahnea h.,46.383027,24.488713
34087,Laslău h.,46.392362,24.542843
34099,Şoimuş h.,46.396848,24.591863
34104,Coroiu h.,46.402111,24.612466
34128,Bălăuşeri hcv.,46.407224,24.700144
34257,Feisa h.,46.231824,24.137323
34477,Oradea Est Triaj h.,47.034256,21.972084
35146,Zimandu Nou h.,46.282804,21.396211
35184,Sântana,46.3335,21.495986
35213,Şimand Hm.,46.423438,21.471559
35249,Nadab,46.486055,21.501621
35263,Chişineu Criş,46.52411,21.531311
35330,Ciumeghiu Hm.,46.725249,21.59513
35407,Salonta,46.809452,21.642319
35469,Leş Bihor Hm.,46.980601,21.807991
36853,Canton Nr. 9 h.,46.169914,20.990558
40024,Hărman,45.69781,25.686208
40036,Ilieni h.,45.726572,25.762695
40050,Prejmer Hm.,45.738918,25.777618
40074,Chichiş h.,45.771441,25.804935
40103,Ozun Hm.,45.799914,25.840072
40139,Sfântu Gheorghe,45.866855,25.811067
40684,Topliţa,46.924016,25.342975
40696,Ciobotani h.,46.950535,25.266204
40701,Stânceni Hm.,46.954568,25.240405
40713,Stânceni h.,46.966472,25.19195
40725,Stânceni Neagra h.,46.96651,25.154218
40749,Lunca Bradului Hm.,46.955222,25.103073
40787,Răstoliţa Hm.,46.971845,24.969027
40799,Borzia h.,46.970471,24.933016
40804,Deda Bistra Hm.,46.96054,24.908192
40830,Deda,46.941425,24.865755
40971,Sărăţel,47.060744,24.403619
40983,Arcalia hc.,47.089564,24.370461
40995,Măgheruş Şieu Hm.,47.101882,24.352833
41016,Sfântu h.,47.131122,24.303535
41028,Caila hc.,47.149196,24.288742
41030,Şintereag Hm.,47.17716,24.270494
41054,Beclean pe Someş,47.177535,24.18259
41080,Ciceu Cristur h.,47.190758,24.089637
41092,Reteag h.,47.194814,24.063543
41107,Reteag Hm.,47.187869,24.023358
41145,Dej Triaj,47.156747,23.913041
41195,Dej Calatori,47.142602,23.894787
41224,Căşeiu Hm.,47.188217,23.851645
41286,Gâlgău,47.280041,23.696672
41327,Ileanda,47.326449,23.608916
41377,Letca Hm.,47.338043,23.465509
41389,Cuciulat Hm.,47.318944,23.413467
41391,Băbuţeni Hm.,47.296926,23.393673
41406,Ciocmani h.,47.285665,23.359263
41418,Surduc Sălaj Hm.,47.248658,23.339492
41420,Var h.,47.237814,23.299642
41444,Jibou,47.250196,23.265278
41468,Someş Odorhei Hm.,47.331753,23.270021
41470,Inău h.,47.362593,23.271142
41482,Aluniş Sălaj h.,47.384458,23.279231
41494,Benesat Hm.,47.406979,23.291533
41511,Ţicău h.,47.444433,23.303303
41523,Ulmeni Sălaj,47.462303,23.299233
41547,Mireşu Mare PM.,47.499386,23.341525
41561,Fersig h.,47.54803,23.380549
41573,Satulung pe Someş Hm.,47.577306,23.416031
41638,Baia Mare,47.646988,23.552134
41767,Buşag Hm.,47.664666,23.428244
41779,Cicârlău h.,47.687784,23.398557
41793,Ilba h.,47.714721,23.346813
41808,Săbişa h.,47.726215,23.325284
41822,Seini,47.738114,23.284423
41846,Apa Hm.,47.768169,23.187795
41860,Medieşu Aurit Hm.,47.775185,23.120285
41884,Odoreu h.,47.800934,22.993894
42010,Budila h.,45.682219,25.815066
42022,Teliu h.,45.694184,25.853792
42034,Valea Teliului h.,45.686481,25.887856
42046,Poiana Florilor h.,45.681065,25.934967
42058,Întorsura Buzăului Hm,45.675341,26.02796
42125,Angheluş h.,45.864791,25.887669
42137,Moacşa hcv.,45.857647,25.939165
42149,Biţa h.,45.841365,25.972703
42151,Boroşneu Mare h.,45.825581,26.010904
42163,Ţufalău h.,45.83463,26.03543
42175,Brateş h.,45.843051,26.071819
42199,Covasna Hm.,45.858666,26.147624
42216,Zăbala h.,45.891664,26.163113
42230,Imeci Hm.,45.940423,26.157928
42242,Cătălina h.,45.955393,26.151311
42266,Târgu Secuiesc,45.991834,26.137619
42280,Sânzieni h.,46.045733,26.144657
42292,Poieniţa h.,46.061997,26.167538
42307,Bălani h.,46.0788,26.18932
42319,Mereni Lutoasa h.,46.072918,26.230636
42321,Lemnia h.,46.056511,26.257184
42333,Breţcu Hm.,46.046014,26.295434
42400,Ruşii Munţi h.,46.916173,24.845637
42412,Aluniş Mureş Hm.,46.900371,24.824548
42424,Halta Aluniş h.,46.871444,24.791477
42436,Brâncoveneşti h.,46.853463,24.769618
42448,Ideciu de Jos h.,46.817202,24.75968
42474,Reghin,46.780608,24.719148
42503,Petelea h.,46.739981,24.713822
42527,Periş Mureş h.,46.701738,24.672172
42539,Gorneşti Mureş h.,46.67173,24.65621
42541,Dumbrăvioara Hm.,46.641962,24.64025
42577,Târgu Mureş Nord Hm.,46.553955,24.562636
42606,Târgu Mureş,46.533822,24.549141
42620,Azomureş h.,46.526452,24.536203
42644,Târgu Mureş Sud,46.505937,24.495542
42670,G-ral N. Dăscălescu Hm.,46.490948,24.462393
42694,Vidrasău h.,46.472564,24.414229
42709,Chirileu h.,46.465194,24.376661
42711,Sânpaul Hm.,46.447767,24.34007
42723,Ogra h.,46.443147,24.31939
42735,Cipău h.,46.434431,24.272944
42747,Iernut,46.44055,24.223466
42761,Cuci h.,46.460455,24.163352
42785,Bogata Mureş h.,46.462238,24.117958
42814,Luduş,46.46709,24.088253
42840,Cheţani h.,46.464678,24.018299
42852,Gligoreşti Hm.,46.441946,23.996265
42864,Gura Arieşului h.,46.427196,23.955699
42876,Lunca Mureşului h.,46.418671,23.918453
42929,Sărata h.,47.080773,24.428987
42943,Viişoara h.,47.101732,24.452679
42955,Bistriţa h.,47.145452,24.501748
42967,Bistriţa Nord,47.133052,24.484553
42981,Livezile Bârgăului h.,47.179252,24.562129
42993,Rusul Bârgăului h.,47.201577,24.636196
43026,Susenii Bârgăului Hm.,47.217587,24.715508
43040,Josenii Bârgăului h.,47.214775,24.66951
43052,Bistriţa Bârgăului hcv.,47.182741,24.805745
43064,Mijlocenii Bârgăului h.,47.217353,24.690792
43076,Bistriţa Bârgăului Sat h.,47.209624,24.760441
43088,Prundul Bârgaului h.,47.218064,24.741444
43090,Bistriţa Bârgăului h.,47.199931,24.783657
43105,Bârgău h.,47.215583,24.750304
43117,Chintelnic h.,47.104061,24.327614
43129,Chiraleş h.,47.085252,24.314665
43131,Ţigău h.,47.058237,24.324105
43143,Lechinţa,47.018234,24.335932
43155,Vermeş h.,47.002054,24.319745
43167,Brăteni h.,46.929294,24.371945
43179,Sângiorgiu Nou h.,46.964483,24.36398
43181,Sânmihaiu de Câmpie h.,46.893889,24.339452
43193,Miceştii de Câmpie h.,46.869803,24.310214
43208,Budeşti Cluj h.,46.865991,24.262696
43210,Ţagu h.,46.841379,24.237068
43222,Ţagu Sat h.,46.820059,24.226908
43246,Sărmaşel hcv.,46.78064,24.204273
43258,Sărmăşel Gaz Metan h.,46.7533,24.157911
43260,Sărmaşu h.,46.748788,24.15124
43272,Balda h.,46.730654,24.147061
43296,Bota Sat h.,46.632988,24.134506
43301,Miheşu de Câmpie Sat h.,46.680493,24.161978
43313,Miheşu de Câmpie h.,46.63952,24.144162
43325,Zau de Câmpie h.,46.613282,24.125026
43337,Tăureni h.,46.582949,24.092468
43349,Melini Valea Largă h.,46.601581,24.120996
43351,Sânger Tăureni h.,46.549158,24.122191
43375,Luduş Sat h.,46.48461,24.100793
43416,Cociu h.,47.197331,24.231785
43428,Mogoşeni Hm.,47.208351,24.250942
43430,Nimigea h.,47.236027,24.282798
43442,Nimigea Hm.,47.247962,24.299971
43454,Mititei h.,47.281774,24.318871
43466,Salva,47.302105,24.340671
43997,Jucu de Jos h.,46.877942,23.773949
44018,Apahida h.,46.814586,23.758005
44020,Jucu Hm.,46.862668,23.763981
44032,Răscruci h.,46.900608,23.779748
44044,Bonţida Hm.,46.925181,23.784959
44056,Fundătura h.,46.9504,23.796928
44068,Iclod Hm.,46.978301,23.816052
44070,Livada Someş h.,47.005533,23.843312
44094,Gherla,47.027626,23.9133
44111,Buneşti h.,47.074901,23.912887
44123,Nima h.,47.093097,23.906631
44197,Mirşid Hm.,47.231327,23.115531
44240,Zalău Nord,47.221036,23.040904
44288,Borla PM.,47.274895,22.943422
44290,Bocşa Sălaj h.,47.299046,22.926385
44305,Câmpia Sălaj h.,47.319121,22.898034
44329,Sărmăşag,47.342602,22.829099
44563,Şimleu Silvaniei,47.250413,22.770009
44575,Măgura Şimleului h.,47.234118,22.784042
44587,Nuşfalău h.,47.214512,22.692952
44604,Ipu h.,47.220568,22.608757
44628,Suplacu de Barcău,47.261811,22.54835
44630,Balc h.,47.296746,22.524861
44678,Abrami h.,47.31441,22.380114
44707,Marghita,47.33983,22.328199
44721,Petreu h.,47.33373,22.295554
44989,Biharia Hm.,47.155948,21.912314
45000,Tămăşeu h.,47.220404,21.913271
45024,Roşiori Bihor h.,47.263894,21.944572
45048,Diosig Hm.,47.297368,22.012339
45062,Cadia h.,47.326223,22.065232
45086,Săcuieni Bihor,47.360253,22.077881
45103,Şilindru Hm.,47.435812,22.047895
45127,Simion h.,47.484188,22.090218
45153,Valea lui Mihai,47.527657,22.132773
45232,Curtuiuşeni h.,47.558398,22.201103
45256,Resighea h.,47.60093,22.284443
45270,Sanislău Hm.,47.631997,22.337641
45294,Marna h.,47.661866,22.387883
45323,Carei,47.696866,22.460132
45359,Domăneşti h.,47.697635,22.593205
45361,Moftin h.,47.697822,22.643637
45373,Gen. Gh. Avramescu Hm.,47.700301,22.679229
45397,Sătmărel h.,47.742632,22.796877
45438,Satu Mare Sud,47.772063,22.87014
45452,Satu Mare,47.796293,22.894596
45464,Ram. Botiz h.,47.836514,22.921237
45488,Micula Hm.,47.900726,22.962139
45505,Porumbeşti Hm.,47.965615,22.991114
45531,Halmeu,47.983013,22.996934
47319,Botiz Hm.,47.825863,22.94554
47668,Clujana h.,46.784387,23.625077
48014,Bistriţa Fabrici h.,47.127078,24.476623
48076,Năsăud h.,47.289881,24.38678
50017,Ploieşti Sud,44.925102,26.029636
50213,Mizil,44.99451,26.438141
50342,Buzău,45.141997,26.821584
50433,Râmnicu Sărat,45.379641,27.058151
50495,Sihlea Hm.,45.503878,27.112977
50512,Gugeşti,45.566962,27.131114
50603,Focşani,45.701732,27.16944
50691,Mărăşeşti,45.876862,27.215047
51190,Roman,46.935112,26.91978
51358,Paşcani,47.257429,26.724014
51413,Lespezi Hm.,47.347255,26.671773
51451,Dolhasca,47.426567,26.608886
51475,Corni h.,47.474817,26.565307
51499,Liteni Hm.,47.515093,26.536295
51530,Vereşti,47.607783,26.441033
51607,Suceava,47.667908,26.27465
51645,Suceava Nord,47.676376,26.239333
54374,Dorohoi,47.962142,26.392433
54972,Lunca Ilvei,47.367162,24.963715
54996,Ilva Mare Hm.,47.364147,24.872468
55005,Măgura Ilvei Hm.,47.379773,24.792518
55017,Poiana Ilvei,47.369316,24.74125
55031,Leşu Ilvei Hm.,47.315572,24.691773
55043,Strâmba h.,47.304459,24.667754
55110,Ilva Mică,47.30589,24.63804
55134,Podereia Feldrului h.,47.285555,24.6168
55146,Feldru Hm.,47.275247,24.593439
55158,Nepos h.,47.279271,24.536831
55172,Rebrişoara Hm.,47.287557,24.47191
55184,Năsăud,47.281218,24.410938
57156,Ţăgşor h.,46.796218,24.213202
57182,Şeuca h.,46.335815,24.334918
57223,Pav. CFR Braşov Triaj h.,45.66727,25.63521
60309,Tecuci,45.835275,27.423228
60335,Tecuci Nord h.(600),45.84572,27.411614
60402,Berheci Hm.,45.975162,27.438986
60490,Bârlad,46.215162,27.673748
60517,Zorleni Hm.,46.266974,27.726413
60531,Banca h.,46.336052,27.792151
60593,Crasna,46.50705,27.824385
60658,Vaslui,46.626906,27.726761
60684,Bălteni Hm.,46.690674,27.642684
60696,Brăhăşoaia h.,46.719423,27.607503
60701,Bârzeşti h.,46.744989,27.586904
60725,Buhăieşti,46.797302,27.560066
60749,Rateşu Cuzei h.,46.831967,27.565045
60751,Rebricea Hm.,46.874637,27.56692
60775,Scânteia Hm.,46.923544,27.567189
60799,Grajduri,46.979306,27.550903
60804,Bârnova Hm.,47.013145,27.568645
60828,Picioru Lupului h.,47.053832,27.57344
60842,Ciurea Hm.,47.096295,27.566718
60878,Nicolina,47.147922,27.579245
60921,Iaşi,47.167463,27.56572
62498,Sagna h.,46.959586,27.000885
62515,Vulpăşeşti h.,46.986525,27.058794
62527,Stăniţa h.,46.990339,27.096392
62541,Piscu Rusului h.,46.958874,27.133037
62565,Dagâţa,46.917845,27.203613
62589,Suhuleţ h.,46.862369,27.223176
62591,Băluşeşti h.,46.889234,27.214808
62606,Mareşal C-tin Prezan Hm.,46.829149,27.259971
62618,Zece Prăjini h.,46.942784,27.174125
62620,Dumeşti h.,46.837566,27.329865
62644,Rafaila h.,46.832488,27.398399
62656,Negreşti Vaslui Hm.,46.823873,27.451957
62759,Leţcani,47.194608,27.392109
62773,Podu Iloaiei,47.209155,27.284543
62840,Târgu Frumos,47.205027,27.012684
62890,Ruginoasa Hm.,47.240854,26.843783
62981,Erbiceni h.,47.248084,27.249967
63002,Spinoasa h.,47.254964,27.184375
63026,Belceşti Hm.,47.297632,27.081272
63038,Podu Ulmi h.,47.305785,27.057514
63040,Hodora h.,47.329895,27.01367
63064,Cotnari h.,47.34903,26.971974
63088,Cepleniţa h.,47.379685,26.963343
63090,Bădeni h.,47.406047,26.949972
63105,Hârlău,47.418828,26.921674
63181,Movileni h.,47.267882,27.374582
63193,Potângeni h.,47.324561,27.353818
63208,Larga Jijia Hm.,47.331432,27.383489
63210,Biserica Larga Jijia h.,47.316788,27.385603
63222,Vlădeni,47.406398,27.324262
63246,Iacobenii Vechi h.,47.445959,27.305838
63258,Şoldana h.,47.483099,27.299985
63260,Andrieşeni h.,47.514131,27.273968
63272,Corlăteni h.,47.922231,26.548676
63284,Rediu h.,47.54169,27.24614
63296,Răuşeni h.,47.564654,27.205105
63325,Todireni Hm.,47.597958,27.152937
63349,Jijia h.,47.656663,27.088662
63363,Zlătunoaia h.,47.694099,27.056692
63387,Truşeşti Hm.,47.765335,27.00425
63399,Buhăceni h.,47.806583,26.995706
63416,Dângeni Hm.,47.852881,26.959782
63428,Dângeni Nord h.,47.867397,26.896288
63430,Ungureni Hm.,47.885041,26.796657
63442,Mândreşti h.,47.906129,26.747277
63466,Vorniceni h.,47.922669,26.656175
63478,Mateieni h.,47.920037,26.600495
63480,Broscăuţi h.,47.956931,26.456691
63492,Carasa h.,47.92783,26.518188
70201,Armăşeşti Hm.,44.729708,26.561775
70213,Bărbuleşti h.,44.72226,26.601959
70237,Urziceni,44.719504,26.644665
71516,Dâmbu Hm.,44.922734,26.071882
71530,Corlăteşti Hm.,44.899997,26.119488
71542,Râfov h.,44.891209,26.139751
71554,Trestieni h.,44.872258,26.178016
71566,Zănoaga Hm.,44.86267,26.203914
71578,Cornurile h.,44.850457,26.237211
71580,Drăgăneşti Prahova Hm.,44.828179,26.30146
71592,Hătcărău h.,44.813518,26.326922
71619,Ciorani Hm.,44.789803,26.384614
71621,Fulga h.,44.773897,26.432373
71645,Ialomiţa Hm.,44.748444,26.507759
80036,Bucureşti Băneasa,44.485369,26.074086
80218,Săruleşti,44.445289,26.656178
80256,Lehliu,44.438449,26.858573
80361,Ciulniţa,44.427815,27.350585
80438,Ştefan cel Mare h.,44.421715,27.638484
80505,Feteşti,44.417357,27.821569
80581,Cernavodă Pod,44.338998,28.02429
80684,Medgidia,44.251791,28.273859
80892,Constanţa,44.168619,28.631479
81066,Eforie Nord,44.057928,28.631573
81080,Eforie Sud,44.033692,28.645105
81092,Costineşti Tabără hc.,43.942706,28.631821
81119,Costineşti,43.959612,28.636386
81133,Neptun hc.,43.886026,28.604829
81171,Neptun Hm.,43.860145,28.578587
81183,Mangalia,43.822473,28.581712
